City_ID,City,Lat,Lng,Max Temp,Humidity,Cloudiness,Wind Speed,Country,Date
0,yellowknife,62.456,-114.3525,243.44,76,75,4.12,CA,2023-01-31 20:53:04
1,new norfolk,-42.7826,147.0587,289.87,66,41,0.45,AU,2023-01-31 20:53:55
2,ribeira grande,38.5167,-28.7,287.37,67,20,4.47,PT,2023-01-31 20:53:55
3,jamestown,42.097,-79.2353,268.16,62,0,1.54,US,2023-01-31 20:49:38
4,port hardy,50.6996,-127.4199,277.25,75,100,9.26,CA,2023-01-31 20:53:57
5,maumere,-8.6199,122.2111,299.35,86,100,1.22,ID,2023-01-31 20:53:57
6,castrillon,43.3979,-6.7922,276.35,95,10,1.44,ES,2023-01-31 20:53:58
7,barrow,71.2906,-156.7887,250.16,77,0,10.29,US,2023-01-31 20:53:58
8,rikitea,-23.1203,-134.9692,299.43,72,17,5.43,PF,2023-01-31 20:53:59
9,saint-philippe,-21.3585,55.7679,298.92,83,100,3.95,RE,2023-01-31 20:53:59
10,mar del plata,-38.0023,-57.5575,298.05,82,40,7.2,AR,2023-01-31 20:54:00
11,hilo,19.7297,-155.09,300.53,88,100,4.63,US,2023-01-31 20:52:08
12,richards bay,-28.783,32.0377,296.37,91,100,4.13,ZA,2023-01-31 20:54:01
13,hithadhoo,-0.6,73.0833,300.23,77,29,4.55,MV,2023-01-31 20:54:01
14,bluff,-46.6,168.3333,288.68,98,100,0.72,NZ,2023-01-31 20:54:02
15,punta arenas,-53.15,-70.9167,288.21,51,75,11.32,CL,2023-01-31 20:54:04
16,northam,51.0333,-4.2167,281.82,83,100,7.58,GB,2023-01-31 20:54:05
17,alice springs,-23.7,133.8833,295.9,100,40,2.06,AU,2023-01-31 20:54:05
18,sept-iles,50.2001,-66.3821,260.4,67,20,3.6,CA,2023-01-31 20:53:51
19,leshukonskoye,64.8989,45.7622,271.87,93,100,6.4,RU,2023-01-31 20:50:26
20,pacific grove,36.6177,-121.9166,287.82,41,0,5.36,US,2023-01-31 20:54:07
21,busselton,-33.65,115.3333,287.14,75,0,7.49,AU,2023-01-31 20:53:23
22,bethel,41.3712,-73.414,276.35,58,40,2.57,US,2023-01-31 20:54:09
23,matara,5.9485,80.5353,296.84,87,99,1.89,LK,2023-01-31 20:52:58
24,sao filipe,14.8961,-24.4956,294.72,71,45,4.44,CV,2023-01-31 20:54:11
25,terney,45.0503,136.6092,260.93,72,99,2.5,RU,2023-01-31 20:54:12
26,atuona,-9.8,-139.0333,299.17,75,78,9.79,PF,2023-01-31 20:49:49
27,yumen,40.2833,97.2,266.47,38,70,1.43,CN,2023-01-31 20:54:14
28,nelson bay,-32.7167,152.15,295.93,85,87,3.58,AU,2023-01-31 20:54:14
29,alta floresta,-9.8756,-56.0861,299.04,90,28,0.86,BR,2023-01-31 20:51:23
30,homer,59.6425,-151.5483,275.8,92,75,1.34,US,2023-01-31 20:54:15
31,vaini,-21.2,-175.2,301.24,83,75,4.63,TO,2023-01-31 20:54:16
32,mataura,-46.1927,168.8643,289.03,100,100,0.43,NZ,2023-01-31 20:54:17
33,kaitangata,-46.2817,169.8464,289.81,98,100,0.43,NZ,2023-01-31 20:54:18
34,kaeo,-35.1,173.7833,295.55,93,88,2.92,NZ,2023-01-31 20:54:19
35,tanete,-3.9443,119.7848,296.17,94,100,1.19,ID,2023-01-31 20:54:20
36,khatanga,71.9667,102.5,231.96,100,78,2.35,RU,2023-01-31 20:54:20
37,kununurra,-15.7667,128.7333,299.14,94,40,2.06,AU,2023-01-31 20:49:24
38,lebu,-37.6167,-73.65,289.35,69,0,8.45,CL,2023-01-31 20:54:21
39,saint george,37.1041,-113.5841,277.83,30,0,1.79,US,2023-01-31 20:51:28
40,mildura,-34.2,142.15,288.19,73,35,6.56,AU,2023-01-31 20:54:22
41,puerto ayora,-0.7393,-90.3518,303.13,88,70,1.79,EC,2023-01-31 20:54:23
42,katsuura,35.1333,140.3,278.82,69,16,2.1,JP,2023-01-31 20:54:24
43,ahipara,-35.1667,173.1667,294.49,88,88,3.57,NZ,2023-01-31 20:54:25
44,cherskiy,68.75,161.3,253.94,98,100,1.61,RU,2023-01-31 20:54:25
45,noshiro,40.2039,140.0242,270.63,98,100,4.67,JP,2023-01-31 20:54:26
46,ushuaia,-54.8,-68.3,286.96,51,75,3.6,AR,2023-01-31 20:54:26
47,hermanus,-34.4187,19.2345,292.48,87,17,3.84,ZA,2023-01-31 20:54:27
48,torbay,47.6666,-52.7314,274.03,89,75,2.06,CA,2023-01-31 20:54:28
49,borzya,50.3833,116.5167,245.17,100,16,0.96,RU,2023-01-31 20:54:29
50,cardston,49.2,-113.3019,269.31,68,100,3.38,CA,2023-01-31 20:54:30
51,carnarvon,-24.8667,113.6333,297.91,80,56,6.37,AU,2023-01-31 20:54:31
52,thompson,55.7435,-97.8558,244.24,57,75,1.03,CA,2023-01-31 20:53:21
53,aripuana,-9.1667,-60.6333,297.8,80,96,0.93,BR,2023-01-31 20:54:32
54,mersing,2.4312,103.8405,297.1,94,40,2.57,MY,2023-01-31 20:54:32
55,canico,32.6333,-16.85,288.5,76,20,4.63,PT,2023-01-31 20:54:33
56,port alfred,-33.5906,26.891,296.05,89,16,8.71,ZA,2023-01-31 20:54:33
57,bambous virieux,-20.3428,57.7575,299.29,83,40,2.06,MU,2023-01-31 20:54:33
58,okhotsk,59.3833,143.3,254.87,97,100,4.95,RU,2023-01-31 20:54:34
59,provideniya,64.3833,-173.3,267.21,100,100,1.0,RU,2023-01-31 20:54:34
60,kapaa,22.0752,-159.319,298.33,89,40,5.14,US,2023-01-31 20:54:35
61,norman wells,65.282,-126.8329,247.17,76,75,5.14,CA,2023-01-31 20:53:04
62,nikolskoye,59.7035,30.7861,272.09,95,98,3.36,RU,2023-01-31 20:54:36
63,qaanaaq,77.484,-69.3632,251.99,48,74,3.94,GL,2023-01-31 20:54:37
64,half moon bay,37.4636,-122.4286,288.96,25,0,3.6,US,2023-01-31 20:52:20
65,vestmannaeyjar,63.4427,-20.2734,272.56,69,100,9.22,IS,2023-01-31 20:54:38
66,the valley,18.217,-63.0578,300.07,65,40,4.12,AI,2023-01-31 20:54:38
67,sola,-13.8833,167.55,299.85,75,98,1.98,VU,2023-01-31 20:54:39
68,talnakh,69.4865,88.3972,256.65,96,100,4.18,RU,2023-01-31 20:50:28
69,batagay-alyta,67.8006,130.4114,249.13,99,100,0.75,RU,2023-01-31 20:54:40
70,avera,33.194,-82.5271,294.18,87,100,3.8,US,2023-01-31 20:54:40
71,plettenberg bay,-34.0527,23.3716,293.51,81,6,1.13,ZA,2023-01-31 20:54:41
72,albany,42.6001,-73.9662,271.8,53,98,0.89,US,2023-01-31 20:51:17
73,san carlos,9.6612,-68.5827,305.97,29,4,2.24,VE,2023-01-31 20:54:42
74,ozernovskiy,51.5,156.5167,266.9,67,36,5.03,RU,2023-01-31 20:54:42
75,tarbagatay,51.4803,107.3602,246.19,99,16,1.52,RU,2023-01-31 20:54:43
76,cape town,-33.9258,18.4232,294.2,82,20,7.6,ZA,2023-01-31 20:53:38
77,florence,43.7667,11.25,279.98,75,0,3.09,IT,2023-01-31 20:50:19
78,velingara,13.15,-14.1167,301.06,13,3,3.02,SN,2023-01-31 20:54:44
79,waipawa,-41.4122,175.5153,290.18,82,100,4.26,NZ,2023-01-31 20:50:26
80,saldanha,-33.0117,17.9442,290.18,96,22,8.45,ZA,2023-01-31 20:54:45
81,mahanje,-9.9333,35.3333,290.86,96,2,1.31,TZ,2023-01-31 20:54:45
82,tommot,58.9564,126.2925,248.1,95,100,3.45,RU,2023-01-31 20:54:46
83,butaritari,3.0707,172.7902,299.87,79,61,8.91,KI,2023-01-31 20:54:46
84,avarua,-21.2078,-159.775,298.18,88,75,2.06,CK,2023-01-31 20:54:47
85,beringovskiy,63.05,179.3167,270.14,97,70,6.15,RU,2023-01-31 20:54:48
86,hobart,-42.8794,147.3294,290.07,72,20,5.14,AU,2023-01-31 20:54:48
87,upernavik,72.7868,-56.1549,255.78,94,100,5.85,GL,2023-01-31 20:54:49
88,winsum,53.33,6.5208,280.36,78,23,11.04,NL,2023-01-31 20:54:49
89,namatanai,-3.6667,152.4333,299.9,80,84,1.4,PG,2023-01-31 20:54:50
90,olafsvik,64.8945,-23.7142,272.64,77,100,12.81,IS,2023-01-31 20:54:50
91,hualmay,-11.0964,-77.6139,297.41,71,100,3.98,PE,2023-01-31 20:54:51
92,kodiak,57.79,-152.4072,276.88,93,75,3.09,US,2023-01-31 20:54:52
93,pomerode,-26.7406,-49.1769,302.07,80,100,1.63,BR,2023-01-31 20:54:52
94,zhaoqing,23.0512,112.4597,291.94,88,73,0.55,CN,2023-01-31 20:54:53
95,erbaa,40.6689,36.5675,276.7,98,100,1.68,TR,2023-01-31 20:54:53
96,shediac,46.2198,-64.5411,267.79,86,75,3.6,CA,2023-01-31 20:54:54
97,jalingo,8.8833,11.3667,300.96,14,79,1.02,NG,2023-01-31 20:54:54
98,phek,25.6667,94.5,278.77,69,95,0.06,IN,2023-01-31 20:54:55
99,abay,49.6311,72.8539,264.36,100,53,0.51,KZ,2023-01-31 20:54:55
100,pevek,69.7008,170.3133,261.5,79,0,3.94,RU,2023-01-31 20:54:56
101,jiblah,13.9216,44.1467,288.44,64,5,0.5,YE,2023-01-31 20:54:56
102,nurota,40.5614,65.6886,279.3,62,100,5.28,UZ,2023-01-31 20:54:57
103,esperance,-33.8667,121.9,289.63,74,100,6.81,AU,2023-01-31 20:54:57
104,lata,40.1629,-8.3327,278.75,79,5,1.11,PT,2023-01-31 20:54:58
105,moron,-34.6534,-58.6198,304.79,68,0,5.64,AR,2023-01-31 20:54:58
106,flinders,-34.5833,150.8552,294.92,80,80,1.79,AU,2023-01-31 20:54:59
107,aden,12.7794,45.0367,297.34,66,2,6.85,YE,2023-01-31 20:54:59
108,mbandaka,0.0487,18.2603,297.83,66,24,1.21,CD,2023-01-31 20:55:00
109,aldan,58.6031,125.3894,246.21,98,100,2.22,RU,2023-01-31 20:55:00
110,ostersund,63.1792,14.6357,267.4,93,0,2.57,SE,2023-01-31 20:52:28
111,sankt georgen,47.1425,16.5815,277.12,71,99,3.2,HU,2023-01-31 20:55:02
112,vao,-22.6667,167.4833,298.71,76,69,4.24,NC,2023-01-31 20:55:05
113,beloha,-25.1667,45.05,293.57,76,6,6.39,MG,2023-01-31 20:54:50
114,sambava,-14.2667,50.1667,298.61,87,12,2.66,MG,2023-01-31 20:50:22
115,georgetown,5.4112,100.3354,300.11,83,20,2.06,MY,2023-01-31 20:53:53
116,port lincoln,-34.7333,135.8667,290.52,80,98,4.64,AU,2023-01-31 20:55:11
117,peterhead,57.5058,-1.7981,278.37,83,99,11.21,GB,2023-01-31 20:55:12
118,lewisporte,49.2499,-55.0482,270.99,88,100,0.63,CA,2023-01-31 20:55:13
119,whitehorse,60.7161,-135.0538,264.27,85,100,2.06,CA,2023-01-31 20:55:14
120,cabo san lucas,22.8909,-109.9124,297.32,43,86,0.89,MX,2023-01-31 20:55:15
121,andra,62.5147,65.8878,265.13,95,100,4.55,RU,2023-01-31 20:55:15
122,tabas,33.5959,56.9244,287.98,38,100,2.6,IR,2023-01-31 20:55:16
123,saskylakh,71.9167,114.0833,239.31,96,100,2.97,RU,2023-01-31 20:55:17
124,nome,64.5011,-165.4064,266.19,100,100,2.57,US,2023-01-31 20:52:45
125,takapau,-40.0333,176.35,290.22,93,100,3.84,NZ,2023-01-31 20:55:18
126,bathsheba,13.2167,-59.5167,300.49,65,20,6.69,BB,2023-01-31 20:55:19
127,tasiilaq,65.6145,-37.6368,261.24,80,100,2.94,GL,2023-01-31 20:55:20
128,chapais,49.7834,-74.8492,256.03,84,100,4.35,CA,2023-01-31 20:55:21
129,thinadhoo,0.5333,72.9333,300.33,76,43,4.64,MV,2023-01-31 20:55:22
130,mount isa,-20.7333,139.5,297.02,100,100,1.54,AU,2023-01-31 20:55:22
131,valenca do piaui,-6.4075,-41.7456,298.18,71,76,0.83,BR,2023-01-31 20:52:17
132,chokurdakh,70.6333,147.9167,256.2,97,100,0.73,RU,2023-01-31 20:55:23
133,kostomuksha,64.571,30.5767,262.02,96,82,3.66,RU,2023-01-31 20:55:25
134,port elizabeth,-33.918,25.5701,294.44,98,20,6.69,ZA,2023-01-31 20:55:26
135,tautira,-17.7333,-149.15,300.16,75,18,6.44,PF,2023-01-31 20:55:26
136,stornoway,58.2093,-6.3865,279.13,73,40,13.38,GB,2023-01-31 20:55:27
137,vila franca do campo,37.7167,-25.4333,286.38,83,53,4.03,PT,2023-01-31 20:55:28
138,guiren,33.6697,118.1889,278.57,56,66,3.87,CN,2023-01-31 20:55:29
139,constitucion,-35.3333,-72.4167,292.09,57,35,6.62,CL,2023-01-31 20:55:29
140,baruun-urt,46.6806,113.2792,251.5,85,4,3.65,MN,2023-01-31 20:55:30
141,bredasdorp,-34.5322,20.0403,292.61,95,37,1.25,ZA,2023-01-31 20:55:30
142,port moresby,-9.4431,147.1797,296.83,94,40,2.57,PG,2023-01-31 20:55:31
143,college,64.8569,-147.8028,266.37,86,100,3.09,US,2023-01-31 20:55:31
144,cileungsi,-6.3947,106.9592,299.18,80,100,2.1,ID,2023-01-31 20:55:32
145,saint-joseph,-21.3667,55.6167,298.36,82,97,3.87,RE,2023-01-31 20:55:32
146,faanui,-16.4833,-151.75,300.26,76,53,6.32,PF,2023-01-31 20:55:33
147,port pirie,-33.1833,138.0167,290.14,77,4,3.2,AU,2023-01-31 20:55:33
148,bowen,-20.0167,148.2333,300.05,87,100,6.24,AU,2023-01-31 20:55:34
149,clyde river,70.4692,-68.5914,246.28,76,100,1.03,CA,2023-01-31 20:55:34
150,castro,-24.7911,-50.0119,291.05,98,100,1.26,BR,2023-01-31 20:55:35
151,tete,-16.1564,33.5867,298.23,88,40,0.0,MZ,2023-01-31 20:55:35
152,krutikha,53.9599,81.2093,249.79,99,79,0.69,RU,2023-01-31 20:55:36
153,dunedin,-45.8742,170.5036,291.37,99,100,1.34,NZ,2023-01-31 20:51:24
154,oktyabrskoye,43.0645,44.7417,272.23,93,43,3.0,RU,2023-01-31 20:55:37
155,ulaanbaatar,47.9077,106.8832,247.89,94,13,1.58,MN,2023-01-31 20:53:58
156,jatai,-17.8814,-51.7144,298.41,79,85,2.12,BR,2023-01-31 20:55:38
157,zhezkazgan,47.8043,67.7144,254.4,99,70,2.69,KZ,2023-01-31 20:55:38
158,mount gambier,-37.8333,140.7667,288.11,85,100,5.23,AU,2023-01-31 20:55:39
159,sharan,54.8167,54.0,263.84,91,86,3.84,RU,2023-01-31 20:55:39
160,renfrew,55.872,-4.3925,278.89,85,75,8.23,GB,2023-01-31 20:55:06
161,jieshi,22.8134,115.8257,290.02,75,100,3.34,CN,2023-01-31 20:55:40
162,watsa,3.0372,29.5355,294.76,47,54,0.99,CD,2023-01-31 20:55:41
163,biloela,-24.4167,150.5,298.22,85,66,4.81,AU,2023-01-31 20:55:41
164,bonfim,3.0833,-59.95,306.3,33,81,1.69,BR,2023-01-31 20:55:42
165,fortuna,40.5982,-124.1573,288.67,36,0,0.45,US,2023-01-31 20:55:42
166,laguna,38.421,-121.4238,286.31,42,0,3.6,US,2023-01-31 20:55:43
167,jiaojiang,28.6803,121.4428,281.48,85,0,2.14,CN,2023-01-31 20:55:43
168,chekhov,55.1431,37.4711,273.23,95,100,4.23,RU,2023-01-31 20:55:44
169,mehamn,71.0357,27.8492,274.12,75,75,7.72,NO,2023-01-31 20:55:44
170,hohhot,40.8106,111.6522,259.31,61,0,1.0,CN,2023-01-31 20:55:45
171,mozarlandia,-14.7447,-50.5706,300.4,79,65,1.82,BR,2023-01-31 20:55:45
172,camacha,33.0833,-16.3333,286.83,67,40,6.17,PT,2023-01-31 20:55:46
173,ilulissat,69.2167,-51.1,259.16,78,75,5.66,GL,2023-01-31 20:55:46
174,cortez,37.3489,-108.5859,275.39,49,0,2.06,US,2023-01-31 20:55:47
175,heihe,50.2441,127.4902,248.47,99,25,2.03,CN,2023-01-31 20:55:47
176,nouadhibou,20.931,-17.0347,292.14,59,97,7.72,MR,2023-01-31 20:55:48
177,meulaboh,4.1363,96.1285,296.54,86,100,3.37,ID,2023-01-31 20:55:48
178,naze,28.3667,129.4833,284.66,69,5,3.09,JP,2023-01-31 20:55:49
179,opuwo,-18.0607,13.84,291.72,85,98,1.27,NA,2023-01-31 20:55:49
180,nola,40.922,14.5329,283.07,80,11,1.44,IT,2023-01-31 20:55:50
181,quelimane,-17.8786,36.8883,299.12,88,20,4.63,MZ,2023-01-31 20:55:50
182,sioux lookout,50.1001,-91.917,254.19,65,20,2.57,CA,2023-01-31 20:55:51
183,zatoka,46.0725,30.4654,273.82,89,68,5.63,UA,2023-01-31 20:55:51
184,komsomolskiy,40.4272,71.7189,271.55,80,72,2.06,UZ,2023-01-31 20:55:52
185,san cristobal,7.7669,-72.225,298.25,54,65,2.07,VE,2023-01-31 20:55:52
186,leningradskiy,69.3833,178.4167,256.84,96,100,2.53,RU,2023-01-31 20:55:53
187,geraldton,-28.7667,114.6,294.38,88,0,0.0,AU,2023-01-31 20:55:53
188,tarakan,3.3,117.6333,298.88,82,100,2.57,ID,2023-01-31 20:55:53
189,narsaq,60.9167,-46.05,266.27,93,100,0.38,GL,2023-01-31 20:55:54
190,ca mau,9.1769,105.15,296.24,80,91,1.25,VN,2023-01-31 20:55:54
191,salinopolis,-0.6136,-47.3561,299.55,83,76,3.23,BR,2023-01-31 20:55:55
192,quang ngai,15.1167,108.8,291.52,93,75,1.36,VN,2023-01-31 20:55:56
193,erenhot,43.6475,111.9767,258.88,66,0,2.92,CN,2023-01-31 20:55:56
194,fare,-16.7,-151.0167,300.17,76,64,6.02,PF,2023-01-31 20:55:57
195,bom jesus,-9.0744,-44.3586,303.71,45,67,3.7,BR,2023-01-31 20:53:03
196,menongue,-14.6585,17.691,290.25,97,99,1.88,AO,2023-01-31 20:55:58
197,neuquen,-38.9516,-68.0591,296.09,43,75,5.14,AR,2023-01-31 20:55:58
198,chambas,22.1928,-78.9136,302.16,48,8,7.18,CU,2023-01-31 20:55:59
199,arraial do cabo,-22.9661,-42.0278,301.13,69,0,9.26,BR,2023-01-31 20:55:59
200,necochea,-38.5473,-58.7368,293.95,74,39,8.1,AR,2023-01-31 20:55:50
201,pangai,-19.8,-174.35,301.21,78,75,3.6,TO,2023-01-31 20:52:20
202,san quintin,30.4833,-115.95,287.49,58,25,4.04,MX,2023-01-31 20:56:00
203,zhigansk,66.7697,123.3711,241.55,98,100,1.92,RU,2023-01-31 20:56:01
204,east london,-33.0153,27.9116,296.34,88,77,7.02,ZA,2023-01-31 20:54:26
205,victoria,22.2855,114.1577,293.12,83,93,3.58,HK,2023-01-31 20:53:51
206,tura,25.5198,90.2201,289.47,55,94,0.73,IN,2023-01-31 20:55:59
207,guerrero negro,27.9769,-114.0611,288.89,52,66,4.57,MX,2023-01-31 20:56:04
208,marondera,-18.1853,31.5519,288.14,92,1,2.52,ZW,2023-01-31 20:56:06
209,auki,-8.7676,160.7034,299.88,79,99,1.93,SB,2023-01-31 20:56:07
210,kamaishi,39.2667,141.8833,273.24,80,61,4.46,JP,2023-01-31 20:56:08
211,dingle,10.9995,122.6711,296.75,95,59,3.73,PH,2023-01-31 20:56:10
212,iqaluit,63.7506,-68.5145,247.0,76,100,6.17,CA,2023-01-31 20:56:11
213,zlobin,45.2924,14.6541,276.81,78,0,3.09,HR,2023-01-31 20:56:13
214,severo-kurilsk,50.6789,156.125,267.23,62,95,2.63,RU,2023-01-31 20:53:58
215,poum,-20.2333,164.0167,299.09,65,35,1.1,NC,2023-01-31 20:56:14
216,vila velha,-20.3297,-40.2925,301.12,81,40,6.17,BR,2023-01-31 20:56:15
217,hull,53.7446,-0.3353,281.28,57,20,9.26,GB,2023-01-31 20:56:16
218,mahebourg,-20.4081,57.7,299.31,83,40,2.06,MU,2023-01-31 20:55:49
219,oum hadjer,13.2954,19.6966,300.61,13,7,7.01,TD,2023-01-31 20:56:18
220,machali,-34.1833,-70.6667,303.75,30,0,4.63,CL,2023-01-31 20:56:19
221,yar-sale,66.8333,70.8333,261.36,91,100,7.09,RU,2023-01-31 20:56:21
222,helena,46.5927,-112.0361,269.25,67,100,1.79,US,2023-01-31 20:56:21
223,vila praia de ancora,41.811,-8.8526,282.1,74,9,2.66,PT,2023-01-31 20:56:22
224,iringa,-7.7667,35.7,287.42,96,19,2.23,TZ,2023-01-31 20:56:23
225,sergeyevka,53.88,67.4158,258.06,93,97,3.8,KZ,2023-01-31 20:56:24
226,tiksi,71.6872,128.8694,252.05,98,100,4.88,RU,2023-01-31 20:56:26
227,zinder,13.8072,8.9881,296.4,10,93,5.39,NE,2023-01-31 20:56:27
228,promyshlennyy,67.5833,63.9167,261.59,95,100,6.32,RU,2023-01-31 20:56:28
229,ajdabiya,30.7554,20.2263,287.15,67,34,8.52,LY,2023-01-31 20:56:28
230,pisco,-13.7,-76.2167,300.18,61,0,7.72,PE,2023-01-31 20:56:29
231,hervey bay,-25.2986,152.8535,299.29,85,99,8.21,AU,2023-01-31 20:56:30
232,najran,17.4924,44.1277,292.51,27,24,0.9,SA,2023-01-31 20:56:30
233,ginda,30.6945,78.4932,277.16,29,0,4.0,IN,2023-01-31 20:56:31
234,bubaque,11.2833,-15.8333,298.39,69,2,7.15,GW,2023-01-31 20:56:32
235,bengkulu,-3.8004,102.2655,296.56,92,100,2.85,ID,2023-01-31 20:56:32
236,aykhal,66.0,111.5,238.33,100,98,2.47,RU,2023-01-31 20:56:33
237,ponta do sol,32.6667,-17.1,288.5,51,26,3.24,PT,2023-01-31 20:56:18
238,grand gaube,-20.0064,57.6608,299.37,84,58,6.85,MU,2023-01-31 20:56:34
239,chimbote,-9.0853,-78.5783,298.06,65,52,4.26,PE,2023-01-31 20:56:34
240,padang,-0.9492,100.3543,297.18,89,100,1.91,ID,2023-01-31 20:56:35
241,lakatoro,-16.0999,167.4164,300.61,75,69,2.23,VU,2023-01-31 20:56:35
242,cam ranh,11.9214,109.1591,296.13,78,75,1.54,VN,2023-01-31 20:56:36
243,karasjok,69.4719,25.5112,266.96,96,100,1.87,NO,2023-01-31 20:56:36
244,argelia,2.2556,-77.2488,294.84,90,93,0.74,CO,2023-01-31 20:56:37
245,porbandar,21.6422,69.6093,292.43,50,9,7.02,IN,2023-01-31 20:56:38
246,atar,20.5169,-13.0499,294.16,19,59,2.77,MR,2023-01-31 20:56:38
247,vardo,70.3705,31.1107,274.14,80,75,8.23,NO,2023-01-31 20:56:39
248,chibombo,-14.6569,28.0706,291.01,98,95,1.88,ZM,2023-01-31 20:56:39
249,yulara,-25.2406,130.9889,296.55,36,93,6.12,AU,2023-01-31 20:56:40
250,lusambo,-4.9667,23.45,293.85,97,86,1.38,CD,2023-01-31 20:56:40
251,coquimbo,-29.9533,-71.3436,295.0,68,0,6.17,CL,2023-01-31 20:56:41
252,arsenyev,44.1631,133.2733,259.31,97,100,0.75,RU,2023-01-31 20:56:41
253,misratah,32.3754,15.0925,288.29,52,91,10.46,LY,2023-01-31 20:56:42
254,srednekolymsk,67.45,153.6833,245.08,95,75,3.46,RU,2023-01-31 20:56:42
255,nemuro,43.3236,145.575,266.27,66,7,2.84,JP,2023-01-31 20:56:43
256,grindavik,63.8424,-22.4338,271.12,80,40,3.6,IS,2023-01-31 20:56:43
257,tuatapere,-46.1333,167.6833,290.07,95,100,1.19,NZ,2023-01-31 20:56:44
258,lavrentiya,65.5833,-171.0,268.45,97,100,1.21,RU,2023-01-31 20:56:44
259,yabrud,33.9674,36.6574,275.08,77,34,4.65,SY,2023-01-31 20:56:45
260,elko,41.0002,-115.5012,258.16,69,14,1.34,US,2023-01-31 20:56:45
261,quirinopolis,-18.4483,-50.4517,299.79,75,85,2.1,BR,2023-01-31 20:56:46
262,newport,51.5877,-2.9984,281.18,81,68,6.75,GB,2023-01-31 20:56:46
263,belaya gora,68.5333,146.4167,249.22,100,99,1.58,RU,2023-01-31 20:56:47
264,cayenne,4.9333,-52.3333,301.17,78,75,3.6,GF,2023-01-31 20:55:32
265,port blair,11.6667,92.75,300.17,78,40,2.06,IN,2023-01-31 20:56:48
266,dikson,73.5069,80.5464,251.87,93,98,4.09,RU,2023-01-31 20:56:48
267,okha,53.5739,142.9478,245.2,96,18,3.72,RU,2023-01-31 20:56:49
268,okato,-39.2,173.8833,291.99,100,99,7.9,NZ,2023-01-31 20:56:50
269,chik,54.9928,82.4311,252.01,84,78,1.0,RU,2023-01-31 20:56:51
270,ochakiv,46.6128,31.5498,272.29,93,73,4.49,UA,2023-01-31 20:56:51
271,raudeberg,61.9875,5.1352,278.52,1,100,11.72,NO,2023-01-31 20:56:52
272,mae sai,20.4335,99.8762,289.29,71,46,0.89,TH,2023-01-31 20:56:52
273,agirish,61.9247,63.0231,266.79,93,100,4.71,RU,2023-01-31 20:56:53
274,sorong,-0.8833,131.25,300.04,81,61,5.5,ID,2023-01-31 20:56:54
275,jining,35.405,116.5814,277.03,33,98,7.23,CN,2023-01-31 20:56:54
276,srivardhan,18.0333,73.0167,296.39,61,7,2.7,IN,2023-01-31 20:56:55
277,vorkuta,67.5,64.0,261.8,95,100,5.94,RU,2023-01-31 20:56:55
278,chuy,-33.6971,-53.4616,298.66,70,25,5.67,UY,2023-01-31 20:56:56
279,smyrna,33.884,-84.5144,292.63,88,75,3.09,US,2023-01-31 20:56:56
280,tulle,45.3333,1.8333,277.03,97,95,0.99,FR,2023-01-31 20:56:57
281,taksimo,56.3444,114.8794,251.55,87,100,1.86,RU,2023-01-31 20:56:57
282,henties bay,-22.116,14.2845,291.75,81,46,3.06,NA,2023-01-31 20:56:58
283,mananjary,-21.2167,48.3333,298.07,89,100,4.58,MG,2023-01-31 20:56:59
284,luderitz,-26.6481,15.1594,289.81,94,0,4.36,NA,2023-01-31 20:56:24
285,agadir,30.4202,-9.5982,290.4,34,69,4.64,MA,2023-01-31 20:55:50
286,salalah,17.0151,54.0924,294.07,69,41,2.58,OM,2023-01-31 20:57:00
287,borger,52.9233,6.7931,279.71,81,30,8.59,NL,2023-01-31 20:52:12
288,pucallpa,-8.3791,-74.5539,305.17,58,75,2.06,PE,2023-01-31 20:57:01
289,evensk,61.95,159.2333,263.77,95,100,3.07,RU,2023-01-31 20:57:01
290,hambantota,6.1241,81.1185,297.69,88,90,1.2,LK,2023-01-31 20:55:37
291,wilkie,52.4168,-108.7014,258.09,82,89,1.03,CA,2023-01-31 20:57:02
292,aquiraz,-3.9014,-38.3911,301.2,80,98,3.8,BR,2023-01-31 20:53:55
293,boende,-0.2167,20.8667,297.05,73,50,1.41,CD,2023-01-31 20:57:03
294,antsohihy,-14.8796,47.9875,297.8,93,89,0.82,MG,2023-01-31 20:54:55
295,maniitsoq,65.4167,-52.9,256.92,74,100,4.25,GL,2023-01-31 20:57:04
296,iquitos,-3.7481,-73.2472,305.17,62,75,2.06,PE,2023-01-31 20:57:04
297,hvide sande,56.0045,8.1294,278.76,77,23,16.42,DK,2023-01-31 20:57:05
298,chkalovskoye,44.8392,133.0436,255.43,97,100,1.2,RU,2023-01-31 20:57:05
299,cassilandia,-19.1133,-51.7342,300.01,81,87,0.61,BR,2023-01-31 20:57:06
300,airai,-8.9266,125.4092,288.93,94,100,0.97,TL,2023-01-31 20:57:06
301,hofn,64.2539,-15.2082,271.7,64,99,8.8,IS,2023-01-31 20:57:07
302,salta,-24.7859,-65.4117,303.48,53,40,4.63,AR,2023-01-31 20:57:07
303,havoysund,70.9963,24.6622,274.28,82,100,7.33,NO,2023-01-31 20:57:08
304,lewistown,40.5992,-77.5714,275.46,76,100,0.0,US,2023-01-31 20:57:09
305,bumbuna,9.05,-11.7333,300.35,26,1,0.72,SL,2023-01-31 20:57:09
306,coruripe,-10.1256,-36.1756,299.53,73,100,4.06,BR,2023-01-31 20:57:10
307,biltine,14.5333,20.9167,299.22,14,12,4.98,TD,2023-01-31 20:57:10
308,kudahuvadhoo,2.6708,72.8944,299.69,72,100,4.59,MV,2023-01-31 20:57:11
309,la cumbre,-30.982,-64.4914,299.92,50,94,1.71,AR,2023-01-31 20:57:12
310,guangshui,31.6199,113.9978,280.67,53,0,3.55,CN,2023-01-31 20:57:13
311,qaqortoq,60.7167,-46.0333,263.79,88,100,0.42,GL,2023-01-31 20:57:13
312,khash,28.2211,61.2158,281.51,55,0,2.09,IR,2023-01-31 20:57:15
313,honiara,-9.4333,159.95,300.03,79,76,1.03,SB,2023-01-31 20:57:15
314,belfast,54.5833,-5.9333,279.47,86,100,6.69,GB,2023-01-31 20:53:04
315,manaus,-3.1019,-60.025,302.43,74,75,4.63,BR,2023-01-31 20:57:16
316,jambi,-1.6,103.6167,296.0,98,100,1.57,ID,2023-01-31 20:57:17
317,santa cruz,-17.8,-63.1667,298.18,83,75,7.72,BO,2023-01-31 20:56:22
318,srandakan,-7.9386,110.2506,297.94,89,100,1.97,ID,2023-01-31 20:57:17
319,rocha,-34.4833,-54.3333,298.71,66,18,5.66,UY,2023-01-31 20:57:18
320,cockburn town,21.4612,-71.1419,300.13,57,40,6.17,TC,2023-01-31 20:54:18
321,nanakuli,21.3906,-158.1547,299.12,69,40,3.09,US,2023-01-31 20:57:19
322,sembakung,3.8167,117.25,296.14,99,100,0.77,ID,2023-01-31 20:57:19
323,paamiut,61.994,-49.6678,262.8,67,100,4.29,GL,2023-01-31 20:57:20
324,potiskum,11.7091,11.0694,298.63,16,71,3.96,NG,2023-01-31 20:57:20
325,hamilton,39.1834,-84.5333,271.33,72,100,3.09,US,2023-01-31 20:46:32
326,uni,57.7535,51.4923,272.05,86,99,7.0,RU,2023-01-31 20:57:21
327,victoria point,-27.5833,153.3,300.13,81,17,0.89,AU,2023-01-31 20:57:21
328,codrington,-38.2667,141.9667,288.9,87,88,7.61,AU,2023-01-31 20:57:22
329,husavik,66.0449,-17.3389,271.43,92,100,9.57,IS,2023-01-31 20:57:22
330,saint-augustin,51.226,-58.6502,256.72,81,20,4.17,CA,2023-01-31 20:57:23
331,dire dawa,9.5931,41.8661,293.77,43,2,0.9,ET,2023-01-31 20:57:23
332,omboue,-1.5746,9.2618,298.95,82,39,3.44,GA,2023-01-31 20:57:24
333,jiancheng,30.391,104.5491,282.36,43,0,1.39,CN,2023-01-31 20:57:25
334,lompoc,34.6391,-120.4579,292.05,41,0,3.6,US,2023-01-31 20:57:25
335,abu zabad,12.35,29.25,298.44,14,47,4.6,SD,2023-01-31 20:57:26
336,eyl,7.9803,49.8164,296.01,79,6,6.24,SO,2023-01-31 20:57:26
337,havre-saint-pierre,50.2334,-63.5986,260.15,56,0,5.14,CA,2023-01-31 20:57:27
338,kita,13.0349,-9.4895,299.48,13,100,2.37,ML,2023-01-31 20:57:27
339,yenagoa,4.9247,6.2642,299.55,82,46,2.1,NG,2023-01-31 20:57:28
340,djambala,-2.5447,14.7533,295.19,77,41,1.35,CG,2023-01-31 20:56:05
341,wetaskiwin,52.9668,-113.3687,265.93,92,100,0.26,CA,2023-01-31 20:57:29
342,bud,39.447,-86.1758,270.23,58,100,3.24,US,2023-01-31 20:57:30
343,dali,25.7,100.1833,280.88,62,2,2.44,CN,2023-01-31 20:57:30
344,itoman,26.1247,127.6694,290.16,67,100,2.06,JP,2023-01-31 20:57:31
345,kolaras,25.2333,77.6,284.44,77,0,2.28,IN,2023-01-31 20:57:31
346,gornozavodsk,58.3758,58.3211,267.8,95,100,4.43,RU,2023-01-31 20:57:32
347,mantua,45.1667,10.7833,277.68,89,9,2.24,IT,2023-01-31 20:57:32
348,egvekinot,66.3167,-179.1667,263.1,91,100,2.86,RU,2023-01-31 20:57:33
349,amstetten,48.1229,14.8721,275.81,92,100,8.16,AT,2023-01-31 20:57:33
350,cidreira,-30.1811,-50.2056,299.09,78,6,4.03,BR,2023-01-31 20:57:34
351,sorland,67.667,12.6934,274.07,58,77,6.55,NO,2023-01-31 20:57:34
352,majene,-3.5403,118.9707,297.99,90,100,2.26,ID,2023-01-31 20:57:36
353,huanren,41.2647,125.3667,262.52,92,79,1.48,CN,2023-01-31 20:57:37
354,isangel,-19.55,169.2667,300.67,75,100,1.08,VU,2023-01-31 20:56:28
355,beira,-19.8436,34.8389,300.2,89,40,5.66,MZ,2023-01-31 20:57:37
356,pinega,64.7001,43.3936,271.8,92,100,6.69,RU,2023-01-31 20:57:38
357,huarmey,-10.0681,-78.1522,297.61,71,59,3.83,PE,2023-01-31 20:57:39
358,mitsamiouli,-11.3847,43.2844,300.36,77,2,2.12,KM,2023-01-31 20:57:39
359,khandyga,62.6667,135.6,238.8,98,100,0.92,RU,2023-01-31 20:57:40
360,kimbe,-5.5502,150.1429,298.27,91,100,0.24,PG,2023-01-31 20:57:40
361,puerto escondido,15.85,-97.0667,301.98,54,0,3.32,MX,2023-01-31 20:57:41
362,povenets,62.8487,34.8262,267.18,93,98,4.02,RU,2023-01-31 20:57:41
363,nefteyugansk,61.0998,72.6035,258.42,97,81,4.51,RU,2023-01-31 20:57:42
364,kirakira,-10.4544,161.9205,300.44,79,86,0.74,SB,2023-01-31 20:57:42
365,erfurt,50.9833,11.0333,278.7,88,20,10.29,DE,2023-01-31 20:57:43
366,boa vista,2.8197,-60.6733,306.14,38,20,2.06,BR,2023-01-31 20:53:06
367,ndola,-12.9587,28.6366,289.44,98,99,1.21,ZM,2023-01-31 20:57:44
368,solnechnyy,50.7214,136.6319,246.44,97,25,1.29,RU,2023-01-31 20:57:44
369,wagar,16.1525,36.2032,299.51,39,50,4.2,SD,2023-01-31 20:57:45
370,yeniseysk,58.4497,92.1703,258.78,98,100,0.8,RU,2023-01-31 20:57:45
371,jalu,29.0331,21.5482,285.07,62,32,4.69,LY,2023-01-31 20:57:46
372,skjeberg,59.2333,11.2,273.46,91,88,1.04,NO,2023-01-31 20:57:47
373,san carlos de bariloche,-41.1456,-71.3082,299.01,21,20,3.09,AR,2023-01-31 20:54:22
374,haverfordwest,51.8017,-4.9691,282.36,76,94,1.34,GB,2023-01-31 20:57:47
375,tomatlan,19.9333,-105.25,302.57,46,15,3.68,MX,2023-01-31 20:57:48
376,lianran,24.9227,102.485,284.45,79,0,1.52,CN,2023-01-31 20:57:48
377,shelburne,44.0787,-80.2041,266.4,71,82,2.61,CA,2023-01-31 20:57:49
378,vila,42.0304,-8.1588,274.65,60,19,1.59,PT,2023-01-31 20:57:49
379,nanortalik,60.1432,-45.2371,265.5,78,100,0.56,GL,2023-01-31 20:55:46
380,malakal,9.5334,31.6605,302.23,17,4,2.93,SS,2023-01-31 20:57:50
381,hornepayne,49.2138,-84.7705,260.76,83,29,4.98,CA,2023-01-31 20:57:51
382,shache,38.4167,77.2406,265.39,90,6,1.54,CN,2023-01-31 20:57:51
383,taoudenni,22.6783,-3.9836,289.49,16,41,5.47,ML,2023-01-31 20:57:52
384,kruisfontein,-34.0033,24.7314,292.83,96,9,1.3,ZA,2023-01-31 20:57:53
385,tessalit,20.1986,1.0114,290.41,10,1,4.17,ML,2023-01-31 20:57:53
386,yamada,39.4667,141.95,271.87,73,49,3.73,JP,2023-01-31 20:57:54
387,quatre cocos,-20.2078,57.7625,299.21,84,80,5.96,MU,2023-01-31 20:57:54
388,trairi,-3.2778,-39.2689,299.62,78,100,4.88,BR,2023-01-31 20:56:11
389,bodden town,19.2833,-81.25,303.15,73,20,5.14,KY,2023-01-31 20:57:55
390,conceicao da barra,-18.5933,-39.7322,298.47,80,100,3.31,BR,2023-01-31 20:57:56
391,yerofey pavlovich,53.9667,121.9667,246.0,94,67,1.76,RU,2023-01-31 20:57:56
392,aksay,47.26,39.87,276.62,77,100,2.68,RU,2023-01-31 20:57:57
393,redmond,47.674,-122.1215,278.84,74,100,0.45,US,2023-01-31 20:52:59
394,souillac,-20.5167,57.5167,299.36,83,40,2.06,MU,2023-01-31 20:57:58
395,sitka,57.0531,-135.33,278.09,81,100,3.6,US,2023-01-31 20:56:00
396,port hawkesbury,45.6169,-61.3485,271.58,93,100,5.14,CA,2023-01-31 20:57:58
397,sokoni,-6.4333,39.55,300.07,79,55,3.93,TZ,2023-01-31 20:57:59
398,bage,-31.3314,-54.1069,307.03,29,0,3.6,BR,2023-01-31 20:57:59
399,panitian,9.0965,118.0864,298.22,89,56,3.63,PH,2023-01-31 20:58:00
400,naugachhia,25.4,87.1,289.22,69,0,5.8,IN,2023-01-31 20:58:00
401,bara,10.3744,10.7288,300.28,14,98,3.97,NG,2023-01-31 20:58:01
402,lorengau,-2.0226,147.2712,300.15,80,100,3.42,PG,2023-01-31 20:58:01
403,santa isabel do rio negro,-0.4139,-65.0192,298.16,89,100,1.39,BR,2023-01-31 20:58:02
404,kalmunai,7.4167,81.8167,296.58,92,100,7.49,LK,2023-01-31 20:58:02
405,santa rita,-7.1139,-34.9781,302.52,61,40,5.66,BR,2023-01-31 20:58:03
406,omurtag,43.1,26.4167,270.43,95,85,2.88,BG,2023-01-31 20:58:04
407,tsovak,40.1825,45.6329,267.14,87,87,1.26,AM,2023-01-31 20:58:04
408,simoes,-7.5989,-40.8178,301.73,46,22,2.57,BR,2023-01-31 20:55:23
409,caravelas,-17.7125,-39.2481,298.95,76,33,3.33,BR,2023-01-31 20:58:05
410,domoni,-12.2569,44.5319,299.35,83,28,2.13,KM,2023-01-31 20:58:06
411,bemban,2.2684,102.3746,297.64,96,20,1.03,MY,2023-01-31 20:58:06
412,chara,56.9064,118.2631,249.55,74,93,1.89,RU,2023-01-31 20:58:07
413,dabakala,8.3667,-4.4333,301.62,15,9,0.94,CI,2023-01-31 20:58:07
414,san patricio,28.017,-97.5169,278.08,77,100,6.48,US,2023-01-31 20:58:08
415,maykor,59.0059,55.88,271.55,93,100,4.9,RU,2023-01-31 20:58:08
416,nhulunbuy,-12.2333,136.7667,300.49,89,97,3.6,AU,2023-01-31 20:58:09
417,ferkessedougou,9.6,-5.2,300.71,14,12,2.19,CI,2023-01-31 20:58:09
418,soe,-9.8607,124.284,292.62,93,100,1.44,ID,2023-01-31 20:58:10
419,ouadda,8.0777,22.4007,296.12,18,4,1.68,CF,2023-01-31 20:58:11
420,westerly,41.3776,-71.8273,277.18,54,0,4.12,US,2023-01-31 20:58:11
421,manitouwadge,49.1215,-85.8403,260.01,84,89,4.57,CA,2023-01-31 20:58:12
422,gorin,51.1983,136.6669,240.19,100,66,0.61,RU,2023-01-31 20:58:12
423,sayyan,15.1718,44.3244,286.22,54,19,1.16,YE,2023-01-31 20:58:13
424,katobu,-4.9408,122.5276,297.41,92,100,0.86,ID,2023-01-31 20:58:13
425,baghdad,33.3406,44.4009,284.1,87,0,3.09,IQ,2023-01-31 20:57:51
426,broken hill,-31.95,141.4333,290.87,51,0,7.25,AU,2023-01-31 20:58:14
427,kodinsk,58.6881,99.1844,257.32,98,100,1.17,RU,2023-01-31 20:58:15
428,sibanicu,21.235,-77.5264,302.38,47,62,7.83,CU,2023-01-31 20:58:15
429,nyagan,62.1406,65.3936,265.98,93,100,4.38,RU,2023-01-31 20:58:16
430,myszkow,50.5752,19.3246,274.06,92,100,7.3,PL,2023-01-31 20:58:16
431,darnah,32.767,22.6367,286.44,72,17,13.22,LY,2023-01-31 20:58:17
432,anchorage,61.2181,-149.9003,275.74,90,100,0.0,US,2023-01-31 20:55:04
433,cabot,34.9745,-92.0165,272.09,96,100,0.0,US,2023-01-31 20:55:55
434,vagay,57.9375,69.0217,261.74,94,62,2.91,RU,2023-01-31 20:58:18
435,termiz,37.2242,67.2783,284.2,54,75,5.14,UZ,2023-01-31 20:58:18
436,paso de carrasco,-34.8603,-56.0522,300.23,69,20,6.17,UY,2023-01-31 20:58:19
437,longyearbyen,78.2186,15.6401,264.06,67,75,6.69,SJ,2023-01-31 20:58:12
438,ambon,-3.6954,128.1814,298.23,94,20,2.57,ID,2023-01-31 20:58:20
439,lovozero,68.005,35.0117,266.71,96,100,2.47,RU,2023-01-31 20:58:20
440,loutros,40.5883,22.3994,280.08,50,0,3.58,GR,2023-01-31 20:58:21
441,adrar,20.5022,-10.0711,292.54,10,74,3.79,MR,2023-01-31 20:58:21
442,ekhabi,53.5102,142.9671,245.13,96,17,3.52,RU,2023-01-31 20:58:22
443,askiz,53.1319,90.5264,255.24,97,41,1.41,RU,2023-01-31 20:58:22
444,goshogawara,40.8044,140.4414,270.65,87,100,2.67,JP,2023-01-31 20:58:23
445,coahuayana,18.7333,-103.6833,303.4,47,0,3.57,MX,2023-01-31 20:58:24
446,hjortshoj,56.2481,10.2653,277.01,92,84,10.78,DK,2023-01-31 20:58:24
447,puerto cabezas,14.0351,-83.3888,301.13,83,40,3.09,NI,2023-01-31 20:58:08
448,ruwi,23.5996,58.5507,293.9,61,3,4.56,OM,2023-01-31 20:58:25
449,port augusta,-32.5,137.7667,291.73,72,0,5.21,AU,2023-01-31 20:58:25
450,tuktoyaktuk,69.4541,-133.0374,236.15,67,0,2.06,CA,2023-01-31 20:58:26
451,shimoda,34.6667,138.95,275.43,71,2,5.63,JP,2023-01-31 20:57:30
452,male,4.1748,73.5089,300.12,89,75,4.12,MV,2023-01-31 20:58:27
453,ukiah,39.1502,-123.2078,290.18,27,76,0.85,US,2023-01-31 20:55:58
454,azanka,58.0401,64.7893,266.72,94,96,3.6,RU,2023-01-31 20:58:28
455,roald,62.5833,6.1333,276.11,87,75,3.6,NO,2023-01-31 20:58:28
456,mareeba,-17.0,145.4333,296.73,97,100,1.01,AU,2023-01-31 20:55:38
457,colombia,20.9881,-77.4297,303.83,43,31,8.49,CU,2023-01-31 20:58:29
458,noumea,-22.2763,166.4572,299.82,99,80,1.59,NC,2023-01-31 20:58:30
459,buala,-8.145,159.5921,301.0,72,94,2.61,SB,2023-01-31 20:58:30
460,orlik,52.5178,99.825,247.4,94,98,0.54,RU,2023-01-31 20:58:31
461,kysyl-syr,63.8986,122.7617,238.77,97,100,3.39,RU,2023-01-31 20:58:31
462,lenine,45.2986,35.7771,275.35,82,80,3.1,UA,2023-01-31 20:58:32
463,aksarka,66.5606,67.7975,261.76,95,100,5.96,RU,2023-01-31 20:58:32
464,karratha,-20.7377,116.8463,303.13,59,14,3.5,AU,2023-01-31 20:58:33
465,pachino,36.7186,15.0907,283.88,69,44,3.75,IT,2023-01-31 20:58:33
466,hami,42.8,93.45,269.76,31,100,1.41,CN,2023-01-31 20:58:34
467,verkhnyaya inta,65.9811,60.3094,266.58,81,100,4.74,RU,2023-01-31 20:58:34
468,nabire,-3.3667,135.4833,297.03,91,97,1.17,ID,2023-01-31 20:58:35
469,tymovskoye,50.8456,142.655,244.0,99,41,1.08,RU,2023-01-31 20:58:35
470,surt,31.2089,16.5887,288.42,61,70,10.77,LY,2023-01-31 20:58:36
471,gigmoto,13.7796,124.39,298.21,89,97,5.78,PH,2023-01-31 20:58:36
472,sairang,23.8,92.6667,287.79,55,58,1.11,IN,2023-01-31 20:58:37
473,vestmanna,62.1564,-7.1664,276.96,94,99,10.05,FO,2023-01-31 20:58:37
474,saint-pierre,-21.3393,55.4781,298.97,89,100,5.66,RE,2023-01-31 20:58:38
475,sibolga,1.7427,98.7792,297.6,88,100,1.12,ID,2023-01-31 20:58:38
476,varhaug,58.6147,5.6457,279.2,82,97,13.96,NO,2023-01-31 20:58:39
477,altay,47.8667,88.1167,261.45,52,42,3.32,CN,2023-01-31 20:58:39
478,manta,-0.95,-80.7333,300.9,67,74,6.07,EC,2023-01-31 20:58:40
479,hyderabad,17.3753,78.4744,290.88,100,40,2.06,IN,2023-01-31 20:45:31
480,ballina,-28.8667,153.5667,296.36,99,64,2.13,AU,2023-01-31 20:58:41
481,bardiyah,31.7561,25.0865,286.25,59,4,10.89,LY,2023-01-31 20:58:41
482,floro,61.5996,5.0328,279.13,70,75,12.35,NO,2023-01-31 20:58:42
483,parati,-23.2178,-44.7131,298.72,91,100,0.89,BR,2023-01-31 20:58:42
484,verkhnetulomskiy,68.6073,31.7962,264.22,97,100,1.04,RU,2023-01-31 20:58:43
485,dauriya,49.9333,116.8667,251.57,90,4,4.71,RU,2023-01-31 20:58:44
486,vodnyy,63.5046,53.4095,268.65,89,100,5.64,RU,2023-01-31 20:58:45
487,westport,41.1415,-73.3579,277.22,59,75,4.12,US,2023-01-31 20:55:47
488,ada,43.4166,-116.1262,268.42,60,100,4.92,US,2023-01-31 20:57:17
489,vagamo,61.8751,9.0967,262.58,93,100,1.78,NO,2023-01-31 20:58:46
490,clayton,33.5335,-84.3666,292.53,90,100,4.63,US,2023-01-31 20:55:49
491,mocajuba,-2.5842,-49.5072,298.94,87,96,1.1,BR,2023-01-31 20:58:46
492,coos bay,43.3665,-124.2179,283.28,78,0,2.06,US,2023-01-31 20:58:47
493,nantucket,41.2835,-70.0995,275.23,72,100,6.17,US,2023-01-31 20:58:47
494,sisimiut,66.9395,-53.6735,256.36,90,100,5.49,GL,2023-01-31 20:57:24
495,ginir,7.1333,40.7,288.18,60,8,2.29,ET,2023-01-31 20:58:48
496,mecca,21.4267,39.8261,295.88,85,8,3.38,SA,2023-01-31 20:58:49
497,ulladulla,-35.35,150.4667,292.22,82,95,3.45,AU,2023-01-31 20:58:49
498,inta,66.0317,60.1659,267.8,82,100,6.18,RU,2023-01-31 20:58:50
499,port hedland,-20.3167,118.5667,300.18,83,21,0.0,AU,2023-01-31 20:58:50
500,agadez,19.75,10.25,289.79,21,100,4.27,NE,2023-01-31 20:58:51
501,vangaindrano,-23.35,47.6,295.57,88,100,3.1,MG,2023-01-31 20:58:51
502,teya,60.3778,92.6267,253.74,100,100,1.48,RU,2023-01-31 20:58:52
503,camopi,3.1655,-52.3158,297.21,96,55,1.2,GF,2023-01-31 20:58:52
504,petropavlovsk-kamchatskiy,53.0452,158.6483,253.48,78,20,5.0,RU,2023-01-31 20:58:53
505,lovington,32.944,-103.3485,273.08,57,100,2.45,US,2023-01-31 20:58:53
506,bima,-8.4667,118.7167,298.15,94,100,0.65,ID,2023-01-31 20:58:54
507,tall kayf,37.0833,41.0667,279.83,86,91,0.78,TR,2023-01-31 20:58:54
508,antalaha,-14.9003,50.2788,297.97,89,12,2.25,MG,2023-01-31 20:58:55
509,port-gentil,-0.7193,8.7815,300.13,83,20,4.63,GA,2023-01-31 20:58:56
510,santa isabel,-23.3156,-46.2214,302.76,92,100,1.64,BR,2023-01-31 20:54:33
511,dondo,-19.6094,34.7431,299.88,90,8,2.62,MZ,2023-01-31 20:58:57
512,hasaki,35.7333,140.8333,268.37,53,40,3.22,JP,2023-01-31 20:58:57
513,santa vitoria do palmar,-33.5189,-53.3681,298.92,68,15,5.47,BR,2023-01-31 20:58:58
514,kavieng,-2.5744,150.7967,300.86,75,100,3.38,PG,2023-01-31 20:55:36
515,carroll,39.5501,-77.0164,276.08,80,100,1.54,US,2023-01-31 20:55:15
516,tambacounda,13.7539,-13.7586,303.18,19,0,2.06,SN,2023-01-31 20:58:59
517,cartagena,10.3997,-75.5144,304.94,51,20,6.17,CO,2023-01-31 20:58:59
518,corowa,-36.0333,146.3833,288.87,68,0,1.99,AU,2023-01-31 20:59:00
519,linjiang,41.8069,126.9078,262.82,97,100,0.9,CN,2023-01-31 20:59:00
520,khuzhir,53.1939,107.3397,255.81,88,21,1.86,RU,2023-01-31 20:59:01
521,fort frances,48.5999,-93.4003,257.13,64,0,3.09,CA,2023-01-31 20:59:01
522,la ronge,55.1001,-105.2842,250.29,54,20,3.09,CA,2023-01-31 20:59:02
523,vostok,46.4856,135.8833,252.72,95,100,1.53,RU,2023-01-31 20:59:02
524,korla,41.7597,86.1469,266.78,79,97,1.05,CN,2023-01-31 20:59:03
525,haines junction,60.7522,-137.5108,267.75,93,98,0.89,CA,2023-01-31 20:59:04
526,harper,4.375,-7.7169,299.61,85,5,3.02,LR,2023-01-31 20:59:04
527,klaksvik,62.2266,-6.589,278.42,95,100,9.45,FO,2023-01-31 20:57:46
528,ancud,-41.8697,-73.8203,290.31,57,0,3.43,CL,2023-01-31 20:59:06
529,tazovskiy,67.4667,78.7,253.51,97,89,4.3,RU,2023-01-31 20:59:06
530,sulangan,11.1373,123.7228,299.22,84,10,6.15,PH,2023-01-31 20:59:07
531,seabra,-12.4186,-41.7703,296.61,62,90,2.9,BR,2023-01-31 20:59:08
532,kaspi,41.9252,44.4257,274.79,89,81,1.49,GE,2023-01-31 20:59:10
533,viransehir,37.2353,39.7631,278.55,91,76,1.47,TR,2023-01-31 20:55:32
534,show low,34.2542,-110.0298,279.3,59,40,2.06,US,2023-01-31 20:59:16
535,ilo,-17.6394,-71.3375,298.63,69,75,5.66,PE,2023-01-31 20:59:18
536,ngunguru,-35.6167,174.5,294.36,92,92,4.17,NZ,2023-01-31 20:59:18
537,tabou,4.423,-7.3528,299.77,84,9,2.74,CI,2023-01-31 20:59:19
538,aitape,-3.1374,142.3475,298.58,87,93,1.87,PG,2023-01-31 20:59:20
539,hemnesberget,66.2333,13.6333,267.55,98,100,1.18,NO,2023-01-31 20:59:20
540,kailua,21.4022,-157.7394,299.14,87,30,1.79,US,2023-01-31 20:59:06
541,dom pedrito,-30.9828,-54.6731,309.87,18,0,3.09,BR,2023-01-31 20:59:22
542,pingxiang,27.6167,113.85,284.97,56,0,0.97,CN,2023-01-31 20:59:22
543,margate,51.3813,1.3862,280.32,73,9,1.34,GB,2023-01-31 20:59:23
544,port macquarie,-31.4333,152.9167,294.2,83,7,3.87,AU,2023-01-31 20:59:24
545,lukaya,-0.1489,31.8748,292.21,74,20,0.94,UG,2023-01-31 20:59:25
546,saint-ambroise,48.5501,-71.3324,257.45,51,74,0.0,CA,2023-01-31 20:59:26
547,rodrigues alves,-7.738,-72.6509,305.26,61,85,2.11,BR,2023-01-31 20:59:26
548,kahului,20.8947,-156.47,299.8,79,20,2.68,US,2023-01-31 20:56:48
549,carutapera,-1.195,-46.02,298.02,91,91,2.68,BR,2023-01-31 20:59:27
550,peleduy,59.6289,112.7406,254.22,96,100,3.56,RU,2023-01-31 20:59:28
551,longkou,37.6508,120.3286,274.04,63,94,11.6,CN,2023-01-31 20:59:29
552,georgiyevskoye,58.731,45.024,270.45,92,100,5.39,RU,2023-01-31 20:59:29
553,buraydah,26.326,43.975,289.4,62,17,5.97,SA,2023-01-31 20:59:30
554,faya,18.3851,42.4509,285.44,66,28,1.62,SA,2023-01-31 20:59:30
555,marzuq,14.4,46.4667,288.18,64,8,2.72,YE,2023-01-31 20:58:02
556,ordu,40.9086,37.6845,271.59,98,100,3.18,TR,2023-01-31 20:59:25
557,brigantine,39.4101,-74.3646,276.26,89,100,2.06,US,2023-01-31 20:58:49
558,udachnyy,66.4167,112.4,231.89,100,86,1.87,RU,2023-01-31 20:59:32
559,santa rosa,14.3122,121.1114,297.14,79,80,4.83,PH,2023-01-31 20:59:32
560,klyuchi,52.2667,79.1667,262.04,94,100,1.76,RU,2023-01-31 20:59:33
561,tarko-sale,64.9225,77.785,254.52,97,68,4.94,RU,2023-01-31 20:59:33
562,moose factory,51.2585,-80.6094,255.15,60,75,5.14,CA,2023-01-31 20:59:34
563,ostrovnoy,68.0531,39.5131,268.62,92,95,2.82,RU,2023-01-31 20:59:34
564,san jeronimo,-11.9472,-75.2829,289.85,55,97,3.22,PE,2023-01-31 20:59:35
565,los llanos de aridane,28.6585,-17.9182,288.01,75,40,4.63,ES,2023-01-31 20:59:35
566,juneau,58.3019,-134.4197,274.87,97,100,0.0,US,2023-01-31 20:58:06
567,salinas,36.6777,-121.6555,288.61,42,0,5.14,US,2023-01-31 20:58:40
568,nanuque,-17.8392,-40.3539,298.68,79,56,4.16,BR,2023-01-31 20:59:36
569,saint-georges,12.0564,-61.7485,300.97,69,40,6.69,GD,2023-01-31 20:57:42
570,puerto ayacucho,5.6639,-67.6236,306.62,30,2,3.24,VE,2023-01-31 20:59:37
571,venado tuerto,-33.7456,-61.9688,309.52,19,2,5.57,AR,2023-01-31 20:59:38
572,mokhsogollokh,61.4681,128.9203,239.25,93,100,3.37,RU,2023-01-31 20:59:38
573,taylorville,39.5489,-89.2945,267.25,49,0,2.57,US,2023-01-31 20:59:39
